{
"type": "FeatureCollection",
"name": "sun",
"crs": { "type": "name", "properties": { "name": "urn:ogc:def:crs:OGC:1.3:CRS84" } },
"features": [
{ "type": "Feature", "properties": { "degree": 0.087379, "closeness": 6.96251, "NOM_LOC": "Cuauhtémoc", "Pob_2010": 531831.0, "SUN_100_Estudio_NOMBRE SUN": "Valle de México" }, "geometry": { "type": "Point", "coordinates": [ -99.149056861056948, 19.431371392521452 ] } },
{ "type": "Feature", "properties": { "degree": 0.058252, "closeness": 7.442372, "NOM_LOC": "Iguala de la Independencia", "Pob_2010": 118468.0, "SUN_100_Estudio_NOMBRE SUN": "Iguala de la Independencia" }, "geometry": { "type": "Point", "coordinates": [ -99.53160547928627, 18.346070119071506 ] } },
{ "type": "Feature", "properties": { "degree": 0.038835, "closeness": 8.101422, "NOM_LOC": "Chilpancingo de los Bravo", "Pob_2010": 187251.0, "SUN_100_Estudio_NOMBRE SUN": "Chilpancingo de los Bravo" }, "geometry": { "type": "Point", "coordinates": [ -99.502096854928425, 17.546015217744511 ] } },
{ "type": "Feature", "properties": { "degree": 0.048544, "closeness": 8.460996, "NOM_LOC": "Acapulco de Juárez", "Pob_2010": 673479.0, "SUN_100_Estudio_NOMBRE SUN": "Acapulco" }, "geometry": { "type": "Point", "coordinates": [ -99.845792076382352, 16.847102608824663 ] } },
{ "type": "Feature", "properties": { "degree": 0.058252, "closeness": 6.900523, "NOM_LOC": "Toluca de Lerdo", "Pob_2010": 489333.0, "SUN_100_Estudio_NOMBRE SUN": "Toluca" }, "geometry": { "type": "Point", "coordinates": [ -99.642428638225027, 19.294686905296444 ] } },
{ "type": "Feature", "properties": { "degree": 0.029126, "closeness": 6.983492, "NOM_LOC": "Santiago Tianguistenco de Galeana", "Pob_2010": 13106.0, "SUN_100_Estudio_NOMBRE SUN": "Tianguistenco" }, "geometry": { "type": "Point", "coordinates": [ -99.469308027117478, 19.174199368939131 ] } },
{ "type": "Feature", "properties": { "degree": 0.048544, "closeness": 7.498476, "NOM_LOC": "Fresnillo", "Pob_2010": 120944.0, "SUN_100_Estudio_NOMBRE SUN": "Fresnillo" }, "geometry": { "type": "Point", "coordinates": [ -102.872840627384477, 23.180823156623585 ] } },
{ "type": "Feature", "properties": { "degree": 0.048544, "closeness": 7.026435, "NOM_LOC": "Celaya", "Pob_2010": 340387.0, "SUN_100_Estudio_NOMBRE SUN": "Celaya" }, "geometry": { "type": "Point", "coordinates": [ -100.815569765035491, 20.530973120941496 ] } },
{ "type": "Feature", "properties": { "degree": 0.029126, "closeness": 7.27627, "NOM_LOC": "Cuernavaca", "Pob_2010": 338650.0, "SUN_100_Estudio_NOMBRE SUN": "Cuernavaca" }, "geometry": { "type": "Point", "coordinates": [ -99.229011976978583, 18.939955772832619 ] } },
{ "type": "Feature", "properties": { "degree": 0.067961, "closeness": 7.288551, "NOM_LOC": "Cuautla", "Pob_2010": 154358.0, "SUN_100_Estudio_NOMBRE SUN": "Cuautla" }, "geometry": { "type": "Point", "coordinates": [ -98.940574572128511, 18.831329077328469 ] } },
{ "type": "Feature", "properties": { "degree": 0.019417, "closeness": 19.464318, "NOM_LOC": "Mexicali", "Pob_2010": 689775.0, "SUN_100_Estudio_NOMBRE SUN": "Mexicali" }, "geometry": { "type": "Point", "coordinates": [ -115.446709773068662, 32.621082959848643 ] } },
{ "type": "Feature", "properties": { "degree": 0.019417, "closeness": 21.616378, "NOM_LOC": "Ensenada", "Pob_2010": 279765.0, "SUN_100_Estudio_NOMBRE SUN": "Ensenada" }, "geometry": { "type": "Point", "coordinates": [ -116.599523082402769, 31.850738341070315 ] } },
{ "type": "Feature", "properties": { "degree": 0.019417, "closeness": 20.898758, "NOM_LOC": "Tijuana", "Pob_2010": 1300983.0, "SUN_100_Estudio_NOMBRE SUN": "Tijuana" }, "geometry": { "type": "Point", "coordinates": [ -116.96519043903966, 32.501677414935322 ] } },
{ "type": "Feature", "properties": { "degree": 0.038835, "closeness": 9.10871, "NOM_LOC": "Mazatlán", "Pob_2010": 381583.0, "SUN_100_Estudio_NOMBRE SUN": "Mazatlán" }, "geometry": { "type": "Point", "coordinates": [ -106.415739516724159, 23.248557824185582 ] } },
{ "type": "Feature", "properties": { "degree": 0.019417, "closeness": 10.492853, "NOM_LOC": "Culiacán Rosales", "Pob_2010": 675773.0, "SUN_100_Estudio_NOMBRE SUN": "Culiacán Rosales" }, "geometry": { "type": "Point", "coordinates": [ -107.408735586688351, 24.794847680754618 ] } },
{ "type": "Feature", "properties": { "degree": 0.029126, "closeness": 11.775023, "NOM_LOC": "Los Mochis", "Pob_2010": 256613.0, "SUN_100_Estudio_NOMBRE SUN": "Los Mochis" }, "geometry": { "type": "Point", "coordinates": [ -108.992020356787094, 25.79041303466656 ] } },
{ "type": "Feature", "properties": { "degree": 0.029126, "closeness": 15.593119, "NOM_LOC": "Heroica Nogales", "Pob_2010": 212533.0, "SUN_100_Estudio_NOMBRE SUN": "Heroica Nogales" }, "geometry": { "type": "Point", "coordinates": [ -110.946736434940334, 31.292205842999394 ] } },
{ "type": "Feature", "properties": { "degree": 0.019417, "closeness": 13.116434, "NOM_LOC": "Ciudad Obregón", "Pob_2010": 298625.0, "SUN_100_Estudio_NOMBRE SUN": "Ciudad Obregón" }, "geometry": { "type": "Point", "coordinates": [ -109.937251126304503, 27.481405878396398 ] } },
{ "type": "Feature", "properties": { "degree": 0.038835, "closeness": 14.33741, "NOM_LOC": "Hermosillo", "Pob_2010": 715061.0, "SUN_100_Estudio_NOMBRE SUN": "Hermosillo" }, "geometry": { "type": "Point", "coordinates": [ -110.976581001783998, 29.083225136076472 ] } },
{ "type": "Feature", "properties": { "degree": 0.019417, "closeness": 13.804387, "NOM_LOC": "Heroica Guaymas", "Pob_2010": 113082.0, "SUN_100_Estudio_NOMBRE SUN": "Guaymas" }, "geometry": { "type": "Point", "coordinates": [ -110.907138343207336, 27.917631498942953 ] } },
{ "type": "Feature", "properties": { "degree": 0.029126, "closeness": 18.820267, "NOM_LOC": "San Luis Río Colorado", "Pob_2010": 158089.0, "SUN_100_Estudio_NOMBRE SUN": "San Luis Río Colorado" }, "geometry": { "type": "Point", "coordinates": [ -114.770815197290446, 32.445662348269494 ] } },
{ "type": "Feature", "properties": { "degree": 0.009709, "closeness": 31.386166, "NOM_LOC": "La Paz", "Pob_2010": 215178.0, "SUN_100_Estudio_NOMBRE SUN": "La Paz" }, "geometry": { "type": "Point", "coordinates": [ -110.307350504287626, 24.125784953172566 ] } },
{ "type": "Feature", "properties": { "degree": 0.038835, "closeness": 7.292416, "NOM_LOC": "Zacatecas", "Pob_2010": 129011.0, "SUN_100_Estudio_NOMBRE SUN": "Zacatecas-Guadalupe" }, "geometry": { "type": "Point", "coordinates": [ -102.587573453173007, 22.764583089087136 ] } },
{ "type": "Feature", "properties": { "degree": 0.048544, "closeness": 11.369834, "NOM_LOC": "Chihuahua", "Pob_2010": 809232.0, "SUN_100_Estudio_NOMBRE SUN": "Chihuahua" }, "geometry": { "type": "Point", "coordinates": [ -106.070782647977538, 28.658539046657769 ] } },
{ "type": "Feature", "properties": { "degree": 0.038835, "closeness": 10.368676, "NOM_LOC": "Hidalgo del Parral", "Pob_2010": 104836.0, "SUN_100_Estudio_NOMBRE SUN": "Hidalgo del Parral" }, "geometry": { "type": "Point", "coordinates": [ -105.675996669510226, 26.937747796671786 ] } },
{ "type": "Feature", "properties": { "degree": 0.019417, "closeness": 10.928693, "NOM_LOC": "Delicias", "Pob_2010": 118071.0, "SUN_100_Estudio_NOMBRE SUN": "Delicias" }, "geometry": { "type": "Point", "coordinates": [ -105.464110935720612, 28.183432158309092 ] } },
{ "type": "Feature", "properties": { "degree": 0.029126, "closeness": 11.674431, "NOM_LOC": "Cuauhtémoc", "Pob_2010": 114007.0, "SUN_100_Estudio_NOMBRE SUN": "Cuauhtémoc" }, "geometry": { "type": "Point", "coordinates": [ -106.864800214544047, 28.415404133325502 ] } },
{ "type": "Feature", "properties": { "degree": 0.038835, "closeness": 8.456802, "NOM_LOC": "Victoria de Durango", "Pob_2010": 518709.0, "SUN_100_Estudio_NOMBRE SUN": "Victoria de Durango" }, "geometry": { "type": "Point", "coordinates": [ -104.651397163121189, 24.026495965905909 ] } },
{ "type": "Feature", "properties": { "degree": 0.019417, "closeness": 12.949718, "NOM_LOC": "Tapachula de Córdova y Ordóñez", "Pob_2010": 202672.0, "SUN_100_Estudio_NOMBRE SUN": "Tapachula de Córdova y Ordóñez" }, "geometry": { "type": "Point", "coordinates": [ -92.268868595332961, 14.90282974752815 ] } },
{ "type": "Feature", "properties": { "degree": 0.038835, "closeness": 11.510334, "NOM_LOC": "Tuxtla Gutiérrez", "Pob_2010": 537102.0, "SUN_100_Estudio_NOMBRE SUN": "Tuxtla Gutiérrez" }, "geometry": { "type": "Point", "coordinates": [ -93.137677638650061, 16.745701711670026 ] } },
{ "type": "Feature", "properties": { "degree": 0.038835, "closeness": 11.931297, "NOM_LOC": "San Cristóbal de las Casas", "Pob_2010": 158027.0, "SUN_100_Estudio_NOMBRE SUN": "San Cristóbal de las Casas" }, "geometry": { "type": "Point", "coordinates": [ -92.642907648293715, 16.732484621461889 ] } },
{ "type": "Feature", "properties": { "degree": 0.029126, "closeness": 12.506412, "NOM_LOC": "Comitán de Domínguez", "Pob_2010": 97537.0, "SUN_100_Estudio_NOMBRE SUN": "Comitán de Domínguez" }, "geometry": { "type": "Point", "coordinates": [ -92.127855833882336, 16.234560437449318 ] } },
{ "type": "Feature", "properties": { "degree": 0.029126, "closeness": 10.773333, "NOM_LOC": "Cárdenas", "Pob_2010": 91558.0, "SUN_100_Estudio_NOMBRE SUN": "Cárdenas" }, "geometry": { "type": "Point", "coordinates": [ -93.374207919798465, 17.995083227352751 ] } },
{ "type": "Feature", "properties": { "degree": 0.048544, "closeness": 11.129681, "NOM_LOC": "Villahermosa", "Pob_2010": 353577.0, "SUN_100_Estudio_NOMBRE SUN": "Villahermosa" }, "geometry": { "type": "Point", "coordinates": [ -92.937155800827767, 17.991330555830981 ] } },
{ "type": "Feature", "properties": { "degree": 0.048544, "closeness": 8.960713, "NOM_LOC": "Oaxaca de Juárez", "Pob_2010": 255029.0, "SUN_100_Estudio_NOMBRE SUN": "Oaxaca" }, "geometry": { "type": "Point", "coordinates": [ -96.730920496133777, 17.080358903754725 ] } },
{ "type": "Feature", "properties": { "degree": 0.058252, "closeness": 8.688077, "NOM_LOC": "San Juan Bautista Tuxtepec", "Pob_2010": 101810.0, "SUN_100_Estudio_NOMBRE SUN": "San Juan Bautista Tuxtepec" }, "geometry": { "type": "Point", "coordinates": [ -96.143562944814491, 18.071364493808538 ] } },
{ "type": "Feature", "properties": { "degree": 0.058252, "closeness": 10.145673, "NOM_LOC": "Santo Domingo Tehuantepec", "Pob_2010": 42082.0, "SUN_100_Estudio_NOMBRE SUN": "Tehuantepec" }, "geometry": { "type": "Point", "coordinates": [ -95.240315043156556, 16.319929140465753 ] } },
{ "type": "Feature", "properties": { "degree": 0.019417, "closeness": 7.009797, "NOM_LOC": "Santiago de Querétaro", "Pob_2010": 626495.0, "SUN_100_Estudio_NOMBRE SUN": "Querétaro" }, "geometry": { "type": "Point", "coordinates": [ -100.405892669665704, 20.608854821650947 ] } },
{ "type": "Feature", "properties": { "degree": 0.067961, "closeness": 6.840135, "NOM_LOC": "San Juan del Río", "Pob_2010": 138878.0, "SUN_100_Estudio_NOMBRE SUN": "San Juan del Río" }, "geometry": { "type": "Point", "coordinates": [ -99.980442695326445, 20.394334028142609 ] } },
{ "type": "Feature", "properties": { "degree": 0.058252, "closeness": 7.292709, "NOM_LOC": "Ciudad Valles", "Pob_2010": 124644.0, "SUN_100_Estudio_NOMBRE SUN": "Ciudad Valles" }, "geometry": { "type": "Point", "coordinates": [ -99.010311523573776, 21.995165465638646 ] } },
{ "type": "Feature", "properties": { "degree": 0.038835, "closeness": 7.123245, "NOM_LOC": "Rioverde", "Pob_2010": 53128.0, "SUN_100_Estudio_NOMBRE SUN": "Ríoverde-Ciudad Fernández" }, "geometry": { "type": "Point", "coordinates": [ -99.988979234360102, 21.923480729348061 ] } },
{ "type": "Feature", "properties": { "degree": 0.067961, "closeness": 6.906885, "NOM_LOC": "San Luis Potosí", "Pob_2010": 722772.0, "SUN_100_Estudio_NOMBRE SUN": "San Luis Potosí-Soledad de Graciano Sánchez" }, "geometry": { "type": "Point", "coordinates": [ -100.958733495769664, 22.133051510889992 ] } },
{ "type": "Feature", "properties": { "degree": 0.019417, "closeness": 7.210664, "NOM_LOC": "Guanajuato", "Pob_2010": 72237.0, "SUN_100_Estudio_NOMBRE SUN": "Guanajuato" }, "geometry": { "type": "Point", "coordinates": [ -101.25738737121037, 21.020282142759385 ] } },
{ "type": "Feature", "properties": { "degree": 0.038835, "closeness": 6.941827, "NOM_LOC": "Irapuato", "Pob_2010": 380941.0, "SUN_100_Estudio_NOMBRE SUN": "Irapuato" }, "geometry": { "type": "Point", "coordinates": [ -101.346503307392183, 20.674915332593038 ] } },
{ "type": "Feature", "properties": { "degree": 0.029126, "closeness": 6.91353, "NOM_LOC": "Salamanca", "Pob_2010": 160169.0, "SUN_100_Estudio_NOMBRE SUN": "Salamanca" }, "geometry": { "type": "Point", "coordinates": [ -101.193895543169447, 20.572583337091029 ] } },
{ "type": "Feature", "properties": { "degree": 0.019417, "closeness": 7.038573, "NOM_LOC": "San Francisco del Rincón", "Pob_2010": 71139.0, "SUN_100_Estudio_NOMBRE SUN": "San Francisco del Rincón" }, "geometry": { "type": "Point", "coordinates": [ -101.852995097533622, 21.019256111590881 ] } },
{ "type": "Feature", "properties": { "degree": 0.029126, "closeness": 6.90089, "NOM_LOC": "Uriangato", "Pob_2010": 51382.0, "SUN_100_Estudio_NOMBRE SUN": "Moroleón-Uriangato" }, "geometry": { "type": "Point", "coordinates": [ -101.173450322359272, 20.13899938331534 ] } },
{ "type": "Feature", "properties": { "degree": 0.029126, "closeness": 7.003143, "NOM_LOC": "León de los Aldama", "Pob_2010": 1238962.0, "SUN_100_Estudio_NOMBRE SUN": "León" }, "geometry": { "type": "Point", "coordinates": [ -101.663232539167737, 21.121769636718124 ] } },
{ "type": "Feature", "properties": { "degree": 0.058252, "closeness": 7.149371, "NOM_LOC": "Aguascalientes", "Pob_2010": 722250.0, "SUN_100_Estudio_NOMBRE SUN": "Aguascalientes" }, "geometry": { "type": "Point", "coordinates": [ -102.285775984486889, 21.884217416121441 ] } },
{ "type": "Feature", "properties": { "degree": 0.019417, "closeness": 8.301615, "NOM_LOC": "Colima", "Pob_2010": 137383.0, "SUN_100_Estudio_NOMBRE SUN": "Colima-Villa de Álvarez" }, "geometry": { "type": "Point", "coordinates": [ -103.717617463753697, 19.240992410760029 ] } },
{ "type": "Feature", "properties": { "degree": 0.029126, "closeness": 8.417374, "NOM_LOC": "Manzanillo", "Pob_2010": 130035.0, "SUN_100_Estudio_NOMBRE SUN": "Manzanillo" }, "geometry": { "type": "Point", "coordinates": [ -104.320156026157392, 19.095817408773801 ] } },
{ "type": "Feature", "properties": { "degree": 0.029126, "closeness": 8.295292, "NOM_LOC": "Tecomán", "Pob_2010": 85689.0, "SUN_100_Estudio_NOMBRE SUN": "Tecomán" }, "geometry": { "type": "Point", "coordinates": [ -103.87798270978233, 18.917132270431281 ] } },
{ "type": "Feature", "properties": { "degree": 0.029126, "closeness": 8.235697, "NOM_LOC": "Tepic", "Pob_2010": 332863.0, "SUN_100_Estudio_NOMBRE SUN": "Tepic" }, "geometry": { "type": "Point", "coordinates": [ -104.883219139081035, 21.499463970423836 ] } },
{ "type": "Feature", "properties": { "degree": 0.067961, "closeness": 7.96947, "NOM_LOC": "Ciudad Lázaro Cárdenas", "Pob_2010": 79200.0, "SUN_100_Estudio_NOMBRE SUN": "Ciudad Lázaro Cárdenas" }, "geometry": { "type": "Point", "coordinates": [ -102.18488717832588, 17.956136797524294 ] } },
{ "type": "Feature", "properties": { "degree": 0.019417, "closeness": 7.579232, "NOM_LOC": "Apatzingán de la Constitución", "Pob_2010": 99010.0, "SUN_100_Estudio_NOMBRE SUN": "Apatzingán de la Constitución" }, "geometry": { "type": "Point", "coordinates": [ -102.35124221540076, 19.091365516095873 ] } },
{ "type": "Feature", "properties": { "degree": 0.038835, "closeness": 7.187931, "NOM_LOC": "Uruapan", "Pob_2010": 264439.0, "SUN_100_Estudio_NOMBRE SUN": "Uruapan" }, "geometry": { "type": "Point", "coordinates": [ -102.04549613810336, 19.408602531957627 ] } },
{ "type": "Feature", "properties": { "degree": 0.029126, "closeness": 6.916777, "NOM_LOC": "Heróica Zitácuaro", "Pob_2010": 84307.0, "SUN_100_Estudio_NOMBRE SUN": "Zitácuaro" }, "geometry": { "type": "Point", "coordinates": [ -100.354116217907361, 19.431744403311981 ] } },
{ "type": "Feature", "properties": { "degree": 0.07767, "closeness": 6.739814, "NOM_LOC": "Morelia", "Pob_2010": 597511.0, "SUN_100_Estudio_NOMBRE SUN": "Morelia" }, "geometry": { "type": "Point", "coordinates": [ -101.201336501179497, 19.701649808028431 ] } },
{ "type": "Feature", "properties": { "degree": 0.038835, "closeness": 7.055962, "NOM_LOC": "Zamora de Hidalgo", "Pob_2010": 141627.0, "SUN_100_Estudio_NOMBRE SUN": "Zamora-Jacona" }, "geometry": { "type": "Point", "coordinates": [ -102.286972790778961, 19.993506919119579 ] } },
{ "type": "Feature", "properties": { "degree": 0.048544, "closeness": 6.977972, "NOM_LOC": "La Piedad de Cabadas", "Pob_2010": 83323.0, "SUN_100_Estudio_NOMBRE SUN": "La Piedad-Pénjamo" }, "geometry": { "type": "Point", "coordinates": [ -102.031388508573968, 20.346582094829436 ] } },
{ "type": "Feature", "properties": { "degree": 0.019417, "closeness": 8.032504, "NOM_LOC": "Ciudad Guzmán", "Pob_2010": 97750.0, "SUN_100_Estudio_NOMBRE SUN": "Ciudad Guzmán" }, "geometry": { "type": "Point", "coordinates": [ -103.468144253248667, 19.701009126086046 ] } },
{ "type": "Feature", "properties": { "degree": 0.07767, "closeness": 7.186105, "NOM_LOC": "Guadalajara", "Pob_2010": 1495182.0, "SUN_100_Estudio_NOMBRE SUN": "Guadalajara" }, "geometry": { "type": "Point", "coordinates": [ -103.338342178902707, 20.67296688769099 ] } },
{ "type": "Feature", "properties": { "degree": 0.029126, "closeness": 7.148933, "NOM_LOC": "Ocotlán", "Pob_2010": 83769.0, "SUN_100_Estudio_NOMBRE SUN": "Ocotlán" }, "geometry": { "type": "Point", "coordinates": [ -102.770676593876388, 20.343387135340262 ] } },
{ "type": "Feature", "properties": { "degree": 0.019417, "closeness": 8.992849, "NOM_LOC": "Puerto Vallarta", "Pob_2010": 203342.0, "SUN_100_Estudio_NOMBRE SUN": "Puerto Vallarta" }, "geometry": { "type": "Point", "coordinates": [ -105.224277672371457, 20.652833479148189 ] } },
{ "type": "Feature", "properties": { "degree": 0.048544, "closeness": 7.008248, "NOM_LOC": "Lagos de Moreno", "Pob_2010": 98206.0, "SUN_100_Estudio_NOMBRE SUN": "Lagos de Moreno" }, "geometry": { "type": "Point", "coordinates": [ -101.927961702554981, 21.357806375495265 ] } },
{ "type": "Feature", "properties": { "degree": 0.029126, "closeness": 7.461721, "NOM_LOC": "Tepatitlán de Morelos", "Pob_2010": 91959.0, "SUN_100_Estudio_NOMBRE SUN": "Tepatitlán de Morelos" }, "geometry": { "type": "Point", "coordinates": [ -102.770398201606753, 20.814291086099193 ] } },
{ "type": "Feature", "properties": { "degree": 0.038835, "closeness": 9.493495, "NOM_LOC": "Acayucan", "Pob_2010": 50934.0, "SUN_100_Estudio_NOMBRE SUN": "Acayucan" }, "geometry": { "type": "Point", "coordinates": [ -94.91622054651279, 17.949816040545954 ] } },
{ "type": "Feature", "properties": { "degree": 0.029126, "closeness": 9.89881, "NOM_LOC": "Coatzacoalcos", "Pob_2010": 235983.0, "SUN_100_Estudio_NOMBRE SUN": "Coatzacoalcos" }, "geometry": { "type": "Point", "coordinates": [ -94.456631416614997, 18.133841457960209 ] } },
{ "type": "Feature", "properties": { "degree": 0.038835, "closeness": 8.024496, "NOM_LOC": "Córdoba", "Pob_2010": 140896.0, "SUN_100_Estudio_NOMBRE SUN": "Córdoba" }, "geometry": { "type": "Point", "coordinates": [ -96.939164652967307, 18.889076924016749 ] } },
{ "type": "Feature", "properties": { "degree": 0.038835, "closeness": 8.052326, "NOM_LOC": "Xalapa-Enríquez", "Pob_2010": 424755.0, "SUN_100_Estudio_NOMBRE SUN": "Xalapa" }, "geometry": { "type": "Point", "coordinates": [ -96.912384944861117, 19.538083394779971 ] } },
{ "type": "Feature", "properties": { "degree": 0.038835, "closeness": 7.921525, "NOM_LOC": "Orizaba", "Pob_2010": 120844.0, "SUN_100_Estudio_NOMBRE SUN": "Orizaba" }, "geometry": { "type": "Point", "coordinates": [ -97.098372390135253, 18.853338591806743 ] } },
{ "type": "Feature", "properties": { "degree": 0.058252, "closeness": 7.661676, "NOM_LOC": "Poza Rica de Hidalgo", "Pob_2010": 185242.0, "SUN_100_Estudio_NOMBRE SUN": "Poza Rica" }, "geometry": { "type": "Point", "coordinates": [ -97.447315112144992, 20.527818485201117 ] } },
{ "type": "Feature", "properties": { "degree": 0.029126, "closeness": 7.767543, "NOM_LOC": "Túxpam de Rodríguez Cano", "Pob_2010": 84750.0, "SUN_100_Estudio_NOMBRE SUN": "Túxpam de Rodríguez Cano" }, "geometry": { "type": "Point", "coordinates": [ -97.392321502599316, 20.958977582359505 ] } },
{ "type": "Feature", "properties": { "degree": 0.048544, "closeness": 8.47404, "NOM_LOC": "Veracruz", "Pob_2010": 428323.0, "SUN_100_Estudio_NOMBRE SUN": "Veracruz" }, "geometry": { "type": "Point", "coordinates": [ -96.157597004483918, 19.184324055144891 ] } },
{ "type": "Feature", "properties": { "degree": 0.048544, "closeness": 7.345262, "NOM_LOC": "Tlaxcala de Xicohténcatl", "Pob_2010": 14692.0, "SUN_100_Estudio_NOMBRE SUN": "Tlaxcala-Apizaco" }, "geometry": { "type": "Point", "coordinates": [ -98.239127698638157, 19.317028179242715 ] } },
{ "type": "Feature", "properties": { "degree": 0.067961, "closeness": 7.36945, "NOM_LOC": "Heróica Puebla de Zaragoza", "Pob_2010": 1434062.0, "SUN_100_Estudio_NOMBRE SUN": "Puebla-Tlaxcala" }, "geometry": { "type": "Point", "coordinates": [ -98.203340482748715, 19.03763982947445 ] } },
{ "type": "Feature", "properties": { "degree": 0.048544, "closeness": 7.896185, "NOM_LOC": "Tehuacán", "Pob_2010": 248716.0, "SUN_100_Estudio_NOMBRE SUN": "Tehuacán" }, "geometry": { "type": "Point", "coordinates": [ -97.40062947614804, 18.464766863931548 ] } },
{ "type": "Feature", "properties": { "degree": 0.038835, "closeness": 7.794787, "NOM_LOC": "Teziutlán", "Pob_2010": 58699.0, "SUN_100_Estudio_NOMBRE SUN": "Teziutlán" }, "geometry": { "type": "Point", "coordinates": [ -97.359643824616143, 19.817024048179604 ] } },
{ "type": "Feature", "properties": { "degree": 0.058252, "closeness": 7.302778, "NOM_LOC": "Tulancingo", "Pob_2010": 102406.0, "SUN_100_Estudio_NOMBRE SUN": "Tulancingo" }, "geometry": { "type": "Point", "coordinates": [ -98.363597769365981, 20.086660213404375 ] } },
{ "type": "Feature", "properties": { "degree": 0.048544, "closeness": 6.948142, "NOM_LOC": "Tula de Allende", "Pob_2010": 28577.0, "SUN_100_Estudio_NOMBRE SUN": "Tula" }, "geometry": { "type": "Point", "coordinates": [ -99.342266835985313, 20.053012690435271 ] } },
{ "type": "Feature", "properties": { "degree": 0.048544, "closeness": 7.145453, "NOM_LOC": "Pachuca de Soto", "Pob_2010": 256584.0, "SUN_100_Estudio_NOMBRE SUN": "Pachuca" }, "geometry": { "type": "Point", "coordinates": [ -98.76963976173613, 20.095280359277108 ] } },
{ "type": "Feature", "properties": { "degree": 0.019417, "closeness": 9.771348, "NOM_LOC": "Minatitlán", "Pob_2010": 112046.0, "SUN_100_Estudio_NOMBRE SUN": "Minatitlán" }, "geometry": { "type": "Point", "coordinates": [ -94.547938553820444, 17.994987106609369 ] } },
{ "type": "Feature", "properties": { "degree": 0.048544, "closeness": 8.462667, "NOM_LOC": "Monterrey", "Pob_2010": 1135512.0, "SUN_100_Estudio_NOMBRE SUN": "Monterrey" }, "geometry": { "type": "Point", "coordinates": [ -100.315058650052208, 25.667738502684028 ] } },
{ "type": "Feature", "properties": { "degree": 0.029126, "closeness": 10.921971, "NOM_LOC": "Piedras Negras", "Pob_2010": 150178.0, "SUN_100_Estudio_NOMBRE SUN": "Piedras Negras" }, "geometry": { "type": "Point", "coordinates": [ -100.542304476309113, 28.690699331349066 ] } },
{ "type": "Feature", "properties": { "degree": 0.058252, "closeness": 8.635924, "NOM_LOC": "Torreón", "Pob_2010": 608836.0, "SUN_100_Estudio_NOMBRE SUN": "La Laguna" }, "geometry": { "type": "Point", "coordinates": [ -103.398632666664938, 25.543672472816542 ] } },
{ "type": "Feature", "properties": { "degree": 0.067961, "closeness": 8.193901, "NOM_LOC": "Saltillo", "Pob_2010": 709671.0, "SUN_100_Estudio_NOMBRE SUN": "Saltillo" }, "geometry": { "type": "Point", "coordinates": [ -100.983698571627158, 25.431991780834576 ] } },
{ "type": "Feature", "properties": { "degree": 0.038835, "closeness": 9.122788, "NOM_LOC": "Monclova", "Pob_2010": 215271.0, "SUN_100_Estudio_NOMBRE SUN": "Monclova-Frontera" }, "geometry": { "type": "Point", "coordinates": [ -101.420897160833348, 26.906805982691115 ] } },
{ "type": "Feature", "properties": { "degree": 0.009709, "closeness": 11.664181, "NOM_LOC": "Ciudad Acuña", "Pob_2010": 134233.0, "SUN_100_Estudio_NOMBRE SUN": "Ciudad Acuña" }, "geometry": { "type": "Point", "coordinates": [ -100.960504012061804, 29.321586580903016 ] } },
{ "type": "Feature", "properties": { "degree": 0.029126, "closeness": 10.086771, "NOM_LOC": "Reynosa", "Pob_2010": 589466.0, "SUN_100_Estudio_NOMBRE SUN": "Reynosa-Río Bravo" }, "geometry": { "type": "Point", "coordinates": [ -98.298454301976989, 26.049805159433358 ] } },
{ "type": "Feature", "properties": { "degree": 0.029126, "closeness": 8.489277, "NOM_LOC": "Ciudad Victoria", "Pob_2010": 305155.0, "SUN_100_Estudio_NOMBRE SUN": "Victoria" }, "geometry": { "type": "Point", "coordinates": [ -99.146027852905874, 23.740580502385804 ] } },
{ "type": "Feature", "properties": { "degree": 0.019417, "closeness": 10.176786, "NOM_LOC": "Heroica Matamoros", "Pob_2010": 449815.0, "SUN_100_Estudio_NOMBRE SUN": "Matamoros" }, "geometry": { "type": "Point", "coordinates": [ -97.508015602214087, 25.848289557543943 ] } },
{ "type": "Feature", "properties": { "degree": 0.029126, "closeness": 10.262957, "NOM_LOC": "Nuevo Laredo", "Pob_2010": 373725.0, "SUN_100_Estudio_NOMBRE SUN": "Nuevo Laredo" }, "geometry": { "type": "Point", "coordinates": [ -99.541829941874809, 27.464345736381816 ] } },
{ "type": "Feature", "properties": { "degree": 0.058252, "closeness": 7.62289, "NOM_LOC": "Tampico", "Pob_2010": 297284.0, "SUN_100_Estudio_NOMBRE SUN": "Tampico" }, "geometry": { "type": "Point", "coordinates": [ -97.871439851662629, 22.266741233768471 ] } },
{ "type": "Feature", "properties": { "degree": 0.029126, "closeness": 15.317379, "NOM_LOC": "Mérida", "Pob_2010": 777615.0, "SUN_100_Estudio_NOMBRE SUN": "Mérida" }, "geometry": { "type": "Point", "coordinates": [ -89.629610968622544, 20.980250493112703 ] } },
{ "type": "Feature", "properties": { "degree": 0.019417, "closeness": 13.951125, "NOM_LOC": "San Francisco de Campeche", "Pob_2010": 220389.0, "SUN_100_Estudio_NOMBRE SUN": "Campeche" }, "geometry": { "type": "Point", "coordinates": [ -90.515490754926589, 19.831365529560934 ] } },
{ "type": "Feature", "properties": { "degree": 0.029126, "closeness": 12.318091, "NOM_LOC": "Ciudad del Carmen", "Pob_2010": 169466.0, "SUN_100_Estudio_NOMBRE SUN": "Ciudad del Carmen" }, "geometry": { "type": "Point", "coordinates": [ -91.800583823975231, 18.651872677966548 ] } },
{ "type": "Feature", "properties": { "degree": 0.019417, "closeness": 17.974092, "NOM_LOC": "Cancún", "Pob_2010": 628306.0, "SUN_100_Estudio_NOMBRE SUN": "Cancún" }, "geometry": { "type": "Point", "coordinates": [ -86.869526019774781, 21.139896210170804 ] } },
{ "type": "Feature", "properties": { "degree": 0.048544, "closeness": 15.45211, "NOM_LOC": "Chetumal", "Pob_2010": 151243.0, "SUN_100_Estudio_NOMBRE SUN": "Chetumal" }, "geometry": { "type": "Point", "coordinates": [ -88.303472951244657, 18.518415131781204 ] } },
{ "type": "Feature", "properties": { "degree": 0.019417, "closeness": 14.212701, "NOM_LOC": "Juárez", "Pob_2010": 1321004.0, "SUN_100_Estudio_NOMBRE SUN": "Juárez" }, "geometry": { "type": "Point", "coordinates": [ -106.429247676692924, 31.65589604077449 ] } },
{ "type": "Feature", "properties": { "degree": 0.009709, "closeness": 18.653648, "NOM_LOC": null, "Pob_2010": null, "SUN_100_Estudio_NOMBRE SUN": null }, "geometry": { "type": "Point", "coordinates": [ -110.940916340630551, 31.27882226300223 ] } },
{ "type": "Feature", "properties": { "degree": 0.019417, "closeness": 12.671933, "NOM_LOC": "Navojoa", "Pob_2010": 113836.0, "SUN_100_Estudio_NOMBRE SUN": "Navojoa" }, "geometry": { "type": "Point", "coordinates": [ -109.442861845000024, 27.067231036999495 ] } }
]
}
